City_ID,City,Lat,Lng,Max Temp,Humidity,Cloudiness,Wind Speed,Country,Date
0,invercargill,-46.4,168.35,10.95,87,57,0.99,NZ,1686627893
1,qusmuryn,52.4503,64.6311,10.53,72,100,6.78,KZ,1686628084
2,albany,42.6001,-73.9662,19.94,81,100,0.89,US,1686628084
3,bredasdorp,-34.5322,20.0403,14.19,81,84,11.43,ZA,1686627889
4,pasuquin,18.3328,120.6177,29.97,79,75,9.26,PH,1686628085
5,port-aux-francais,-49.35,70.2167,6.24,88,100,13.96,TF,1686628085
6,blackmans bay,-43.0167,147.3167,13.18,76,100,3.58,AU,1686627887
7,avarua,-21.2078,-159.775,25.03,88,40,6.17,CK,1686627979
8,tolanaro,-25.0319,46.9987,17.04,94,20,1.03,MG,1686627972
9,stanley,54.868,-1.6985,10.5,91,100,1.54,GB,1686627762
10,alsfeld,50.75,9.2667,11.4,80,0,1.46,DE,1686628085
11,la sarre,48.8002,-79.1996,15.12,85,100,3.15,CA,1686628085
12,puerto ayora,-0.7393,-90.3518,26.42,93,72,2.68,EC,1686628085
13,adamstown,-25.066,-130.1015,20.58,62,50,3.08,PN,1686628085
14,hamilton,39.1834,-84.5333,13.8,80,0,2.06,US,1686627971
15,high rock,26.6208,-78.2833,26.01,77,92,5.22,BS,1686628086
16,bayganin,48.6947,55.8742,29.85,18,97,1.6,KZ,1686628086
17,chandler,33.3062,-111.8412,30.33,23,0,4.12,US,1686627824
18,de aar,-30.6497,24.0123,2.36,92,29,2.68,ZA,1686628086
19,sierra grande,-41.606,-65.3557,4.38,47,28,2.24,AR,1686628086
20,ribeira grande,38.5167,-28.7,19.32,97,8,1.79,PT,1686627902
21,itacoatiara,-3.1431,-58.4442,24.76,88,90,1.11,BR,1686627888
22,batie,9.8833,-2.9167,22.64,86,70,2.92,BF,1686628086
23,bhimunipatnam,17.8833,83.4333,33.73,50,48,4.37,IN,1686628086
24,isangel,-19.55,169.2667,26.06,69,100,2.06,VU,1686628086
25,waitangi,-43.9535,-176.5597,11.01,89,95,1.34,NZ,1686627965
26,kapa'a,22.0752,-159.319,27.99,81,40,6.17,US,1686627887
27,hermanus,-34.4187,19.2345,16.0,88,100,13.07,ZA,1686628087
28,petropavlovsk-kamchatsky,53.0452,158.6483,23.33,29,0,6.0,RU,1686628087
29,akureyri,65.6835,-18.0878,3.96,93,0,0.51,IS,1686628087
30,caleta de carquin,-11.0925,-77.6267,20.08,80,38,6.34,PE,1686628087
31,san jose del guaviare,2.5729,-72.6459,22.33,99,99,0.62,CO,1686628087
32,bilibino,68.0546,166.4372,4.56,94,100,4.71,RU,1686628087
33,vilyuchinsk,52.9306,158.4028,24.15,47,0,1.34,RU,1686628087
34,wenxing,28.6667,112.8833,27.8,65,95,1.7,CN,1686628087
35,newman,37.3138,-121.0208,26.19,55,51,3.52,US,1686628088
36,vorkuta,67.5,64.0,8.76,57,100,5.93,RU,1686627981
37,zhaqsy,51.9083,67.3133,12.47,66,92,9.36,KZ,1686628088
38,cabo san lucas,22.8909,-109.9124,30.17,28,0,3.09,MX,1686627977
39,saipan,15.1355,145.701,31.39,100,40,5.66,MP,1686627976
40,praia da vitoria,38.7333,-27.0667,18.14,94,20,2.27,PT,1686628021
41,bethel,41.3712,-73.414,19.17,89,100,3.09,US,1686628088
42,keflavik,64.0049,-22.5624,5.95,93,0,2.57,IS,1686628088
43,luderitz,-26.6481,15.1594,12.24,79,0,4.66,NA,1686628019
44,tubarjal,30.4999,38.216,24.21,39,0,1.79,SA,1686628088
45,howrah,22.5892,88.3103,32.0,79,40,3.6,IN,1686627914
46,longyearbyen,78.2186,15.6401,2.91,70,75,6.17,SJ,1686627982
47,papatowai,-46.5619,169.4708,10.77,85,26,2.23,NZ,1686627974
48,nuuk,64.1835,-51.7216,0.34,100,100,1.79,GL,1686628089
49,edinburgh of the seven seas,-37.0676,-12.3116,15.0,91,100,8.24,SH,1686627972
50,nelson bay,-32.7167,152.15,16.67,79,100,3.13,AU,1686628089
51,alaghsas,17.0187,8.0168,29.68,37,54,4.48,NE,1686627894
52,grytviken,-54.2811,-36.5092,-3.04,84,96,4.46,GS,1686627973
53,punta arenas,-53.15,-70.9167,5.06,75,40,7.72,CL,1686627974
54,puerto baquerizo moreno,-0.9,-89.6,25.93,82,26,5.25,EC,1686627746
55,prince george,53.9166,-122.753,27.69,28,75,3.09,CA,1686627987
56,nyurba,63.2842,118.3319,16.57,30,93,3.48,RU,1686628089
57,pitimbu,-7.4706,-34.8086,24.33,83,21,5.87,BR,1686628089
58,port blair,11.6667,92.75,30.02,84,75,4.63,IN,1686628090
59,ushuaia,-54.8,-68.3,4.81,75,20,10.29,AR,1686627977
60,west island,-12.1568,96.8225,27.99,78,60,8.19,CC,1686627983
61,zapala,-38.8992,-70.0544,2.55,34,1,1.9,AR,1686628090
62,vadso,70.0744,29.7487,10.49,62,20,8.75,NO,1686628011
63,puerto natales,-51.7236,-72.4875,2.15,93,100,2.16,CL,1686627983
64,khandyga,62.6667,135.6,9.71,82,100,3.15,RU,1686628090
65,galliano,29.4422,-90.2992,28.0,78,0,2.57,US,1686628090
66,nouadhibou,20.931,-17.0347,20.81,83,5,9.25,MR,1686628090
67,kozhevnikovo,56.2589,83.9714,15.2,53,97,3.0,RU,1686628090
68,chibougamau,49.9168,-74.3659,16.79,63,0,2.57,CA,1686628090
69,vorgashor,67.5833,63.95,8.66,57,100,6.08,RU,1686627987
70,huambo,-12.7761,15.7392,12.89,62,6,2.06,AO,1686628091
71,whitehorse,60.7161,-135.0538,15.57,24,40,8.75,CA,1686627967
72,es castell,39.8795,4.2854,19.38,100,0,2.57,ES,1686628091
73,mokrous,51.2333,47.5167,14.75,67,100,10.44,RU,1686628091
74,hawaiian paradise park,19.5933,-154.9731,26.73,76,40,4.12,US,1686627967
75,utrik,11.2278,169.8474,27.79,81,60,8.29,MH,1686627971
76,sao miguel do araguaia,-13.275,-50.1628,24.72,52,36,1.68,BR,1686628091
77,lorengau,-2.0226,147.2712,28.92,80,72,4.9,PG,1686628011
78,vadu moldovei,47.3833,26.3667,13.54,83,100,2.95,RO,1686628091
79,ilulissat,69.2167,-51.1,2.01,75,100,0.0,GL,1686627969
80,gizo,-8.103,156.8419,28.77,76,13,4.32,SB,1686628091
81,kiffa,16.6166,-11.4045,32.44,36,100,3.24,MR,1686628092
82,bo phloi,14.3236,99.5161,27.82,73,100,2.68,TH,1686628092
83,freetown,8.484,-13.2299,23.84,100,75,2.06,SL,1686628021
84,constantia,44.1833,28.65,13.38,81,39,7.3,RO,1686627991
85,holualoa,19.6228,-155.9522,25.91,84,100,5.66,US,1686627916
86,kingston,17.997,-76.7936,28.53,77,20,6.69,JM,1686627827
87,iqaluit,63.7506,-68.5145,-0.15,80,100,2.06,CA,1686627976
88,port alfred,-33.5906,26.891,13.43,63,100,3.58,ZA,1686627980
89,colonia,50.9333,6.95,16.57,63,0,2.57,DE,1686627983
90,tiksi,71.6872,128.8694,3.49,95,100,2.89,RU,1686627975
91,st. john's,47.5649,-52.7093,9.26,96,100,9.77,CA,1686627743
92,olonkinbyen,70.9221,-8.7187,1.79,90,100,10.19,SJ,1686627977
93,wailua homesteads,22.0669,-159.378,27.24,82,40,6.17,US,1686627984
94,yellowknife,62.456,-114.3525,8.29,71,100,3.09,CA,1686627673
95,howard springs,-12.497,131.047,32.12,24,100,4.3,AU,1686627983
96,torghay,49.6339,63.4981,22.93,41,66,10.67,KZ,1686628093
97,buka,40.8108,69.1986,32.37,27,100,0.82,UZ,1686628005
98,homer,59.6425,-151.5483,10.93,69,100,5.36,US,1686628073
99,udachny,66.4167,112.4,18.03,29,16,7.14,RU,1686627991
100,vadlapudi,14.3167,79.8,36.22,34,87,7.16,IN,1686628093
101,buncrana,55.1333,-7.45,14.33,92,96,1.41,IE,1686628002
102,mahibadhoo,3.7833,72.9667,28.9,76,93,7.05,MV,1686628093
103,margherita di savoia,41.3742,16.1502,19.96,80,0,3.55,IT,1686628093
104,pemangkat,1.1667,108.9667,30.53,66,31,2.64,ID,1686628093
105,kodiak,57.79,-152.4072,12.73,44,100,6.17,US,1686627973
106,kasane,-17.8167,25.15,16.05,31,0,3.6,BW,1686628094
107,margaret river,-33.95,115.0667,16.13,70,100,8.08,AU,1686627969
108,owerri,5.4833,7.0304,22.8,97,100,1.79,NG,1686628094
109,kem',64.9555,34.5793,15.9,49,80,7.21,RU,1686628094
110,thompson,55.7435,-97.8558,7.09,87,100,3.6,CA,1686628094
111,mount isa,-20.7333,139.5,28.87,17,16,4.63,AU,1686628008
112,guelmim,28.987,-10.0574,19.39,79,76,7.66,MA,1686628094
113,kone,-21.0595,164.8658,24.51,54,21,2.99,NC,1686628002
114,baotou,40.6522,109.8222,26.23,18,0,1.77,CN,1686628094
115,kutahya,39.4242,29.9833,12.97,88,83,1.73,TR,1686628094
116,georgetown,5.4112,100.3354,31.97,66,20,3.6,MY,1686627939
117,tofol,5.3248,163.0078,29.88,74,100,1.54,FM,1686628001
118,kauhajoki,62.4333,22.1833,13.39,58,94,4.47,FI,1686628095
119,selfoss,63.9331,-20.9971,6.69,81,23,1.66,IS,1686628019
120,anadyr,64.75,177.4833,14.28,47,0,4.0,RU,1686627975
121,jamestown,42.097,-79.2353,12.8,94,100,3.6,US,1686627700
122,college,64.8569,-147.8028,16.97,41,75,6.17,US,1686627885
123,dali,25.7,100.1833,16.92,84,100,1.12,CN,1686628095
124,karachi,24.9056,67.0822,32.9,49,75,8.23,PK,1686628095
125,ancud,-41.8697,-73.8203,4.37,89,71,2.57,CL,1686627993
126,port moresby,-9.4431,147.1797,29.68,70,40,2.57,PG,1686628095
127,merritt island,28.5392,-80.672,28.03,80,0,5.81,US,1686628095
128,cafayate,-26.073,-65.9761,2.2,64,60,1.06,AR,1686628096
129,gouyave,12.1646,-61.7296,25.43,100,75,5.66,GD,1686628096
130,tafuna,-14.3358,-170.72,28.11,73,41,6.49,AS,1686628096
131,metlili chaamba,32.2667,3.6333,23.52,50,1,10.29,DZ,1686628096
132,kamuli,0.9472,33.1197,16.65,95,99,0.76,UG,1686628096
133,ataq,14.5377,46.8319,29.24,31,92,2.12,YE,1686628096
134,brandon,27.9378,-82.2859,27.92,79,0,1.54,US,1686627859
135,kaoma,-14.7833,24.8,12.52,53,87,0.49,ZM,1686628096
136,lompoc,34.6391,-120.4579,17.1,83,100,4.02,US,1686628002
137,crane,31.3974,-102.3501,30.49,15,2,4.41,US,1686628097
138,pandan,14.0453,124.1694,32.01,60,100,1.64,PH,1686627987
139,tangalle,6.024,80.7911,31.09,68,100,6.47,LK,1686628000
140,kirensk,57.7853,108.1119,18.41,30,100,5.49,RU,1686628097
141,plastun,44.7561,136.2939,15.47,77,93,2.75,RU,1686628097
142,lebu,-37.6167,-73.65,7.69,69,0,5.46,CL,1686628033
143,uturoa,-16.7333,-151.4333,27.06,75,23,7.79,PF,1686627996
144,yuzhno-kurilsk,44.0306,145.8556,11.54,96,100,3.89,RU,1686627973
145,porto novo,6.4965,2.6036,26.9,83,98,2.54,BJ,1686628012
146,isafjordur,66.0755,-23.124,7.58,81,76,2.72,IS,1686627968
147,ciamis,-7.3257,108.3534,27.3,80,99,1.79,ID,1686628098
148,calolbon,13.596,124.0991,30.6,69,100,3.52,PH,1686628098
149,korla,41.7597,86.1469,34.03,16,90,1.85,CN,1686627974
150,nova sintra,14.8667,-24.7167,21.22,85,100,9.54,CV,1686628098
151,pahasu,28.1833,78.05,40.49,22,0,8.6,IN,1686628098
152,vernon,50.2581,-119.2691,31.2,49,51,0.0,CA,1686627908
153,bubaque,11.2833,-15.8333,26.45,84,100,5.57,GW,1686628098
154,santa terezinha,-29.9002,-50.0904,8.79,72,84,4.26,BR,1686628098
155,tobruk,32.0836,23.9764,20.81,92,1,4.88,LY,1686628004
156,nemuro,43.3236,145.575,11.91,96,100,5.4,JP,1686627948
157,pangody,65.85,74.4859,5.95,52,17,7.68,RU,1686628017
158,larnaca,34.9167,33.6292,23.86,83,20,1.54,CY,1686628099
159,okha,53.5739,142.9478,8.56,88,96,4.1,RU,1686628099
160,weno,7.4515,151.8468,29.97,84,100,3.6,FM,1686628000
161,cascais,38.6979,-9.4215,18.06,88,1,6.71,PT,1686628099
162,fernley,39.608,-119.2518,18.65,44,77,3.02,US,1686628099
163,pacific grove,36.6177,-121.9166,15.37,84,75,3.58,US,1686627988
164,dalcahue,-42.3628,-73.7022,1.78,93,20,2.06,CL,1686628099
165,nizao,18.25,-70.2,26.04,78,1,4.62,DO,1686628099
166,tazovsky,67.4667,78.7,1.83,87,100,8.02,RU,1686628019
167,hami,42.8,93.45,34.76,14,82,2.82,CN,1686627992
168,pecos,31.4229,-103.4932,33.5,12,0,0.0,US,1686627901
169,ust-nera,64.5667,143.2,8.29,76,100,2.94,RU,1686627899
170,jabor,5.921,169.6434,27.79,82,100,6.79,MH,1686628100
171,port elizabeth,-33.918,25.5701,13.94,66,0,3.6,ZA,1686627973
172,happy valley-goose bay,53.3168,-60.3315,15.17,47,75,0.0,CA,1686627905
173,muynoq,43.7683,59.0214,30.72,18,1,7.58,UZ,1686628100
174,iskateley,67.6803,53.1512,10.64,47,84,3.91,RU,1686627983
175,desaguadero,-16.5656,-69.0417,4.75,36,46,0.94,PE,1686628100
176,fuwwah,31.2029,30.5502,21.31,74,1,0.92,EG,1686628100
177,beyneu,45.3167,55.2,30.44,14,7,4.81,KZ,1686628013
178,nabire,-3.3667,135.4833,29.44,67,99,1.51,ID,1686628100
179,nizhneudinsk,54.9076,99.0276,15.64,69,82,1.82,RU,1686628100
180,yaren,-0.5472,166.916,28.36,76,99,2.81,NR,1686628100
181,atasu,48.6814,71.6433,25.82,23,10,2.99,KZ,1686628101
182,kristiansund,63.1115,7.732,14.03,76,75,1.03,NO,1686628012
183,knoxville,35.9606,-83.9207,18.11,82,0,3.09,US,1686628022
184,watsa,3.0372,29.5355,15.44,96,47,1.38,CD,1686628101
185,afaahiti,-17.75,-149.2833,26.93,70,35,7.97,PF,1686627899
186,cangas del narcea,43.1833,-6.55,14.57,97,92,0.9,ES,1686628101
187,port-vila,-17.7338,168.3219,25.78,73,100,5.14,VU,1686628101
188,carnarvon,-24.8667,113.6333,20.63,29,0,5.83,AU,1686627974
189,genhe,50.7833,121.5167,29.74,24,91,3.27,CN,1686628003
190,mingshui,36.7167,117.5,30.35,28,22,4.26,CN,1686628101
191,mogocha,53.7333,119.7667,14.65,52,98,5.0,RU,1686628101
192,hailey,43.5196,-114.3153,14.92,72,75,4.12,US,1686628102
193,sibu,2.3,111.8167,32.17,70,40,1.54,MY,1686628102
194,amga,60.8953,131.9608,4.47,92,100,1.81,RU,1686627971
195,adrar,20.5022,-10.0711,27.17,21,43,6.24,MR,1686628102
196,queenstown,-31.8976,26.8753,6.0,63,48,5.26,ZA,1686628102
197,lihue,21.9789,-159.3672,27.58,78,40,6.17,US,1686627972
198,port mathurin,-19.6833,63.4167,24.79,74,11,6.98,MU,1686627980
199,susuman,62.7833,148.1667,10.02,82,100,3.75,RU,1686628022
200,rakvere,59.3464,26.3558,13.84,59,6,2.0,EE,1686628102
201,flying fish cove,-10.4217,105.6791,27.82,83,75,6.17,CX,1686628015
202,sirte,31.2089,16.5887,21.14,84,0,2.74,LY,1686628102
203,bathsheba,13.2167,-59.5167,27.34,89,40,4.12,BB,1686628006
204,tamanrasset,22.785,5.5228,26.95,29,20,2.06,DZ,1686627905
205,manggar,-2.8833,108.2667,28.56,80,25,6.63,ID,1686628103
206,polyarnyy,69.1989,33.4478,9.73,66,93,7.17,RU,1686628103
207,victoria falls,-17.9235,25.843,14.58,27,23,3.09,ZW,1686628103
208,haiku-pauwela,20.9219,-156.3051,28.01,58,0,10.29,US,1686627921
209,kalmunai,7.4167,81.8167,30.37,62,97,1.09,LK,1686628103
210,sanibel,26.449,-82.0223,29.03,83,0,0.45,US,1686627843
211,ghorawal,24.7667,82.7833,41.38,19,28,8.24,IN,1686628103
212,dauphin,51.1494,-100.0502,21.08,68,75,0.0,CA,1686628103
213,dadukou,26.5479,101.7054,20.82,71,97,1.38,CN,1686628103
214,san antonio de pale,-1.4014,5.6325,24.33,88,98,2.93,GQ,1686628104
215,ulladulla,-35.35,150.4667,19.63,41,100,4.09,AU,1686627994
216,meadow lakes,61.6247,-149.6011,10.93,72,75,3.09,US,1686628017
217,port lincoln,-34.7333,135.8667,13.95,59,96,9.27,AU,1686627988
218,enewetak,11.3474,162.3373,27.98,82,99,8.32,MH,1686627917
219,murray bridge,-35.1167,139.2667,15.07,55,8,10.02,AU,1686628104
220,pisco,-13.7,-76.2167,19.03,77,2,1.03,PE,1686628003
221,nar'yan-mar,67.6713,53.087,10.71,48,86,3.9,RU,1686627999
222,salinas,36.6777,-121.6555,16.12,81,75,3.09,US,1686628104
223,okhotsk,59.3833,143.3,8.44,86,90,5.54,RU,1686628104
224,piti village,13.4626,144.6933,31.03,79,20,8.23,GU,1686628023
225,atafu village,-8.5421,-172.5159,28.68,76,30,6.51,TK,1686627977
226,arraial do cabo,-22.9661,-42.0278,21.68,91,2,3.03,BR,1686627979
227,tommot,58.9564,126.2925,5.46,94,100,1.04,RU,1686628105
228,chonchi,-42.6128,-73.8092,2.29,95,46,0.6,CL,1686627984
229,guerrero negro,27.9769,-114.0611,16.76,81,65,7.7,MX,1686628001
230,serowe,-22.3833,26.7167,8.66,61,0,3.74,BW,1686628105
231,vila franca do campo,37.7167,-25.4333,19.23,99,100,4.29,PT,1686627982
232,taulaga,-11.0553,-171.0883,28.43,77,22,7.49,AS,1686628106
233,coquimbo,-29.9533,-71.3436,10.85,81,100,1.54,CL,1686628013
234,chulakkurgan,43.765,69.1814,25.05,18,4,5.92,KZ,1686628106
235,tuy hoa,13.0833,109.3,32.15,56,99,4.41,VN,1686628106
236,gadzhiyevo,69.2551,33.3362,9.57,66,99,7.47,RU,1686628020
237,karatuzskoye,53.6072,92.8667,21.17,48,25,2.45,RU,1686628106
238,seward,40.907,-97.0989,19.2,57,79,0.45,US,1686628106
239,port douglas,-16.4833,145.4667,24.4,75,40,3.9,AU,1686627900
240,kahriz,34.3838,47.0553,18.04,36,0,0.0,IR,1686628107
241,zeribet el oued,34.6828,6.5111,27.31,43,8,4.5,DZ,1686628107
242,kissidougou,9.1848,-10.0999,20.91,99,99,2.04,GN,1686628107
243,olyokminsk,60.3736,120.4264,16.14,26,28,4.5,RU,1686628107
244,amos,48.5669,-78.1162,16.74,70,100,3.0,CA,1686628107
245,egilsstadir,65.2653,-14.3948,5.95,87,0,0.0,IS,1686627971
246,hammerfest,70.6634,23.6821,5.25,81,100,9.77,NO,1686628107
247,tura,25.5198,90.2201,27.58,82,6,2.84,IN,1686627890
248,brookings,44.3114,-96.7984,18.19,59,0,2.06,US,1686627952
249,nagqu,31.5,92.0,10.75,48,96,3.54,CN,1686628108
250,shalkar,47.8288,59.6258,29.96,17,94,3.91,KZ,1686628108
251,sarajevo,43.8486,18.3564,14.95,93,75,1.03,BA,1686628108
252,qaqortoq,60.7167,-46.0333,7.13,79,100,2.81,GL,1686627904
253,raduzhny,62.0961,77.475,6.18,69,100,5.12,RU,1686628108
254,santa cruz,-17.8,-63.1667,13.7,47,75,9.26,BO,1686627808
255,ouesso,1.6136,16.0517,21.6,96,100,0.68,CG,1686628108
256,naze,28.3667,129.4833,22.51,90,100,2.68,JP,1686628009
257,la leonesa,-27.0379,-58.7035,10.01,50,70,2.41,AR,1686628108
258,klaksvik,62.2266,-6.589,6.51,69,95,0.97,FO,1686628109
259,sorong,-0.8833,131.25,28.97,74,98,3.4,ID,1686628109
260,hasaki,35.7333,140.8333,27.94,82,98,4.55,JP,1686627983
261,bouar,5.934,15.596,17.53,97,75,1.08,CF,1686628109
262,seosan,36.7817,126.4522,23.19,55,95,3.6,KR,1686628109
263,kapuskasing,49.4169,-82.4331,17.05,82,100,3.6,CA,1686627980
264,hithadhoo,-0.6,73.0833,28.86,70,72,3.4,MV,1686627888
265,blair,41.5444,-96.125,19.24,59,0,0.0,US,1686628109
266,qamdo,31.1667,97.2333,2.05,95,100,1.34,CN,1686628109
267,san patricio,28.017,-97.5169,28.27,88,66,5.7,US,1686627974
268,tadine,-21.55,167.8833,22.32,64,60,5.49,NC,1686628110
269,viqueque,-8.8673,126.3658,28.67,54,82,2.93,TL,1686628110
270,kaa-khem,51.6833,94.7333,21.02,34,22,2.03,RU,1686628110
271,jalai nur,49.45,117.7,29.7,23,97,4.26,CN,1686628110
272,constitucion,-35.3333,-72.4167,7.67,65,0,2.17,CL,1686628018
273,malanville,11.8685,3.3899,26.08,79,72,3.01,BJ,1686628110
274,pirallahi,40.4723,50.333,26.08,70,0,2.06,AZ,1686628110
275,irtyshsk,53.3333,75.4572,15.23,49,99,3.47,KZ,1686628110
276,wundanyi,-3.4019,38.364,15.41,84,92,1.51,KE,1686628110
277,trevelin,-43.0858,-71.4639,0.71,89,33,1.28,AR,1686628110
278,clearwater,27.9659,-82.8001,27.95,81,0,3.58,US,1686627938
279,kashmar,35.2383,58.4656,29.76,14,0,1.51,IR,1686628111
280,primero de mayo,-32.2552,-58.4228,4.19,77,12,1.57,AR,1686628111
281,sechura,-5.5569,-80.8222,22.74,74,0,6.93,PE,1686628111
282,bakchar,57.0186,82.0711,13.52,45,100,2.44,RU,1686628111
283,tindouf,27.6711,-8.1474,19.25,72,0,6.17,DZ,1686628111
284,sao joao da barra,-21.6403,-41.0511,22.53,88,58,2.16,BR,1686627969
285,sumbawanga,-7.9667,31.6167,13.51,63,79,1.35,TZ,1686628111
286,dudinka,69.4058,86.1778,12.18,53,60,3.01,RU,1686628111
287,geraldton,-28.7667,114.6,17.23,51,0,5.66,AU,1686627743
288,sarkikaraagac,38.0794,31.3664,15.2,80,99,1.06,TR,1686628112
289,newport,51.5877,-2.9984,18.07,88,85,3.99,GB,1686628030
290,tynda,55.1667,124.7167,8.06,84,100,3.72,RU,1686628112
291,minas de marcona,-15.2119,-75.1103,11.97,88,82,7.25,PE,1686628011
292,saint-philippe,-21.3585,55.7679,22.28,72,0,1.76,RE,1686628112
293,touros,-5.1989,-35.4608,23.91,90,7,4.6,BR,1686627969
294,kruisfontein,-34.0033,24.7314,12.71,62,90,2.93,ZA,1686627986
295,fortuna,40.5982,-124.1573,13.53,95,100,2.57,US,1686627970
296,kidal,18.4411,1.4078,29.47,46,13,5.01,ML,1686628112
297,nago,26.5881,127.9761,27.47,96,100,4.44,JP,1686628112
298,alexandria,31.2156,29.9553,20.3,75,0,1.05,EG,1686628088
299,saurimo,-9.6608,20.3916,15.09,45,36,1.73,AO,1686628112
300,luanda,-8.8368,13.2343,22.0,88,75,1.03,AO,1686627991
301,hadibu,12.65,54.0333,28.32,79,100,10.68,YE,1686627987
302,santana,-0.0583,-51.1817,27.1,94,20,2.06,BR,1686627898
303,liuli,-11.0833,34.6333,22.36,62,46,1.14,TZ,1686628113
304,silver city,32.7701,-108.2803,19.06,19,0,3.6,US,1686628113
305,guymon,36.6828,-101.4816,17.0,94,40,3.6,US,1686628053
306,lensk,60.7253,114.9278,17.6,23,3,2.29,RU,1686627907
307,sandnessjoen,66.0217,12.6316,9.29,94,75,3.09,NO,1686628113
308,kailua-kona,19.6406,-155.9956,27.98,84,100,5.66,US,1686627746
309,annau,37.8876,58.516,30.72,23,0,1.03,TM,1686628113
310,magadan,59.5667,150.8,18.63,85,88,4.53,RU,1686628113
311,aasiaat,68.7098,-52.8699,-2.24,87,41,2.08,GL,1686627894
312,rtishchevo,52.2604,43.7874,9.0,96,100,6.5,RU,1686628114
313,tucuma,-0.1833,-50.05,24.14,94,100,2.52,BR,1686628114
314,baynjiwayn,35.6183,45.9541,25.02,27,0,1.23,IQ,1686628114
315,callao,-12.0667,-77.15,21.16,78,75,7.72,PE,1686628007
316,kismayo,-0.3582,42.5454,26.16,82,38,6.73,SO,1686628114
317,wanning,18.8003,110.3967,32.06,65,100,3.68,CN,1686628114
318,male,4.1748,73.5089,30.97,79,75,7.2,MV,1686628114
319,fredericton,45.9454,-66.6656,17.58,80,0,2.06,CA,1686627994
320,rakops,-21.0167,24.3333,10.51,56,4,4.62,BW,1686628114
321,broken hill,-31.95,141.4333,15.29,43,0,9.55,AU,1686628115
322,sao paulo de olivenca,-3.3783,-68.8725,22.38,99,74,0.55,BR,1686628115
323,badger,64.8,-147.5333,16.93,43,0,6.17,US,1686627901
324,illizi,26.4833,8.4667,29.92,18,0,4.03,DZ,1686628115
325,grand falls-windsor,48.9332,-55.6649,8.06,91,64,1.67,CA,1686627967
326,sitka,57.0531,-135.33,11.94,62,75,5.66,US,1686627687
327,el charco,2.4769,-78.1105,25.54,91,99,0.91,CO,1686628115
328,tralee,52.2704,-9.7026,15.59,96,94,1.14,IE,1686627997
329,lakatoro,-16.0999,167.4164,25.54,82,77,4.68,VU,1686628115
330,kandira,41.0736,30.1746,16.44,83,100,3.32,TR,1686628116
331,sidney,-33.8679,151.2073,20.73,57,0,8.75,AU,1686628030
332,waajid,3.8096,43.2463,22.21,81,72,8.11,SO,1686628116
333,vangaindrano,-23.35,47.6,18.1,92,6,2.55,MG,1686628116
334,krutinka,56.0055,71.5113,12.28,55,99,3.02,RU,1686628116
335,ain sukhna,29.6002,32.3167,26.53,51,13,1.02,EG,1686628116
336,mersing,2.4312,103.8405,31.95,74,40,4.12,MY,1686627987
337,alofi,-19.0595,-169.9187,21.94,94,100,4.63,NU,1686627999
338,klyuchi,52.2667,79.1667,20.29,47,19,4.66,RU,1686627972
339,urangan,-25.3,152.9,21.01,65,0,1.24,AU,1686628116
340,nguigmi,14.2495,13.1092,29.64,56,0,4.17,NE,1686628117
341,port saint john's,-31.6229,29.5448,15.01,62,84,3.31,ZA,1686627900
342,south venice,27.0531,-82.4243,28.88,86,0,2.06,US,1686628117
343,kyongwon,42.8136,130.1528,25.46,54,57,0.3,KP,1686628117
344,hede,33.7681,120.2517,29.67,33,100,1.56,CN,1686628012
345,fort bragg,35.139,-79.006,22.08,92,40,0.0,US,1686627973
346,aswan,24.0934,32.907,29.61,23,0,0.0,EG,1686628117
347,jacmel,18.2342,-72.5347,28.91,85,7,1.11,HT,1686628117
348,tinajo,29.0788,-13.7081,21.49,78,40,4.63,ES,1686628117
349,hoemul-li,41.4339,129.67,19.03,78,74,2.9,KP,1686628117
350,doctor mora,21.1417,-100.3125,19.14,45,2,2.49,MX,1686628117
351,mili,6.0815,171.735,28.17,80,100,7.57,MH,1686628008
352,numan,9.4667,12.0333,25.47,77,100,3.49,NG,1686628118
353,kasongo-lunda,-6.4667,16.8167,20.29,95,71,0.66,CD,1686628118
354,kota belud,6.351,116.4305,31.86,61,61,2.95,MY,1686628118
355,tra mhor,52.1624,-7.1524,17.27,95,82,2.68,IE,1686628118
356,laojunmiao,39.8333,97.7333,26.65,14,0,9.17,CN,1686628000
357,mahina,-17.5065,-149.489,27.87,65,40,1.03,PF,1686628118
358,sarangani,5.4033,125.4636,29.25,68,29,3.87,PH,1686628004
359,i-n-salah,27.1935,2.4607,32.48,10,0,4.2,DZ,1686628118
360,troitsk,54.0979,61.5773,10.01,49,84,1.79,RU,1686628119
361,sinabang,2.4803,96.3801,29.89,66,25,1.44,ID,1686627993
362,levuka,50.1834,-105.4011,20.84,31,59,2.22,CA,1686627997
363,diu,20.7141,70.9822,28.92,82,100,11.43,IN,1686628119
364,lockwood,45.8191,-108.4149,21.94,68,75,2.06,US,1686628119
365,magistral'nyy,56.1725,107.4458,16.45,36,100,1.78,RU,1686628012
366,la passe,45.5549,-0.8967,18.32,90,100,2.51,FR,1686627904
367,doberlug-kirchhain,51.6167,13.5667,14.39,66,14,1.47,DE,1686628119
368,woodlake,37.4211,-77.6793,21.87,83,40,4.12,US,1686628119
369,fitzgerald,31.7149,-83.2526,24.06,83,0,2.57,US,1686628119
370,springs,-26.25,28.4,5.18,91,0,5.07,ZA,1686628119
371,turkmenbasy,40.0222,52.9552,25.43,65,0,2.06,TM,1686628016
372,dunedin,-45.8742,170.5036,13.22,65,49,2.68,NZ,1686627755
373,andergrove,-21.0833,149.1833,27.03,70,2,2.36,AU,1686627996
374,posto fiscal rolim de moura,-13.0833,-62.2667,18.64,86,73,2.74,BR,1686627998
375,sihanoukville,10.6093,103.5296,29.97,79,40,2.57,KH,1686628120
376,teknaf,20.8624,92.3058,29.28,77,95,4.51,BD,1686628120
377,acapulco de juarez,16.8634,-99.8901,28.13,78,20,2.26,MX,1686628120
378,alice springs,-23.7,133.8833,20.68,26,0,3.6,AU,1686627999
379,veraval,20.9,70.3667,29.3,82,100,13.31,IN,1686628120
380,crucecita,-28.95,-58.9833,4.42,53,23,2.72,AR,1686628120
381,tougan,13.0667,-3.0667,25.97,73,100,3.07,BF,1686628120
382,xifeng,42.7372,124.7222,24.75,41,68,2.52,CN,1686628120
383,cesme,38.3228,26.3064,20.84,68,0,4.12,TR,1686628121
384,hakha,22.65,93.6167,23.06,66,90,0.2,MM,1686628121
385,walvis bay,-22.9575,14.5053,12.83,93,100,1.54,NA,1686628121
386,bodo,67.28,14.405,8.21,92,100,9.77,NO,1686627911
387,el granada,37.5027,-122.4694,18.04,81,100,3.09,US,1686628121
388,wellington,-41.2866,174.7756,12.81,79,75,10.29,NZ,1686627724
389,ziro,27.6333,93.8333,14.41,89,68,1.26,IN,1686628121
390,east london,-33.0153,27.9116,15.52,44,0,8.75,ZA,1686627997
391,lamu,-2.2717,40.902,24.12,79,12,5.93,KE,1686628121
392,leava,-14.3,-178.1667,27.18,80,51,5.59,WF,1686628121
393,aykhal,66.0,111.5,15.92,33,10,7.79,RU,1686628122
394,fale old settlement,-9.3852,-171.2468,28.48,78,17,6.95,TK,1686627983
395,kununurra,-15.7667,128.7333,31.99,25,21,5.66,AU,1686628010
396,shorewood,41.52,-88.2017,17.06,75,100,4.63,US,1686627968
397,lerwick,60.1545,-1.1494,12.0,93,99,3.14,GB,1686628122
398,lindsay,36.203,-119.0882,27.11,44,0,2.57,US,1686628122
399,alajarvi,63.0,23.8167,13.19,50,38,3.67,FI,1686628122
400,karratha,-20.7377,116.8463,25.22,27,9,8.86,AU,1686627831
401,khawr fakkan,25.3313,56.342,33.03,28,97,1.57,AE,1686628122
402,solnechnyy,50.7214,136.6319,22.15,38,10,3.07,RU,1686628123
403,inongo,-1.95,18.2667,20.72,96,85,1.77,CD,1686628123
404,vilhena,-12.7406,-60.1458,18.2,99,96,2.43,BR,1686628018
405,mujiayingzi,42.1167,118.7833,23.8,36,29,5.86,CN,1686628123
406,kill devil hills,36.0307,-75.676,22.21,90,15,5.58,US,1686628123
407,niquero,20.0431,-77.5828,26.47,84,14,3.58,CU,1686628123
408,yuanping,38.7153,112.7575,28.05,23,0,4.96,CN,1686628123
409,kudahuvadhoo,2.6708,72.8944,28.73,76,71,6.48,MV,1686628123
410,tarancon,40.0085,-3.0073,17.29,63,83,1.86,ES,1686628123
411,kavaratti,10.5669,72.642,29.56,76,96,9.43,IN,1686628006
412,adi keyh,14.8444,39.3772,17.02,60,97,0.65,ER,1686628124
413,alpena,45.0617,-83.4327,11.18,88,40,3.09,US,1686628124
414,yamba,-5.9,22.3,19.64,94,60,0.74,CD,1686628124
415,khorixas,-20.3667,14.9667,9.56,32,1,3.1,NA,1686628124
416,vila velha,-20.3297,-40.2925,23.3,89,20,2.57,BR,1686628124
417,knyaze-volkonskoye,48.4642,135.4567,22.19,48,15,3.76,RU,1686628124
418,san rafael,-34.6177,-68.3301,3.91,31,0,2.73,AR,1686628006
419,the pas,53.8251,-101.2541,21.01,60,100,2.57,CA,1686628124
420,arvayheer,46.2639,102.775,25.93,20,61,5.65,MN,1686628124
421,agadez,19.75,10.25,30.68,31,24,5.19,NE,1686628125
422,zhob,31.3411,69.4481,29.01,34,0,3.98,PK,1686628125
423,severnoye,56.3491,78.3619,12.69,54,100,2.17,RU,1686628125
424,luwingu,-10.2621,29.9271,12.87,71,24,1.62,ZM,1686628125
425,malpe,13.35,74.7167,28.61,71,61,3.13,IN,1686628001
426,choyr,46.3611,108.3611,28.52,16,14,4.58,MN,1686628125
427,bonthe,7.5264,-12.505,24.52,89,100,2.33,SL,1686628125
428,padang,-0.9492,100.3543,30.03,66,84,1.96,ID,1686628125
429,victoria,22.2855,114.1577,35.67,76,93,2.24,HK,1686628093
430,masuguru,-11.3667,38.4167,17.66,82,3,0.22,TZ,1686628125
431,fuling,29.7022,107.3919,28.21,64,92,1.99,CN,1686628125
432,eket,4.6412,7.9209,23.99,92,99,1.81,NG,1686628126
433,gokwe,-18.2048,28.9349,12.39,48,22,1.8,ZW,1686628126
434,as sulayyil,20.4607,45.5779,31.14,14,88,9.11,SA,1686628126
435,jalalabad,34.4265,70.4515,34.07,26,39,0.46,AF,1686628012
436,camana,-16.6228,-72.7111,17.3,85,85,4.73,PE,1686628126
437,buulobarde,3.8538,45.5674,24.69,83,62,8.27,SO,1686628126
438,phan rang-thap cham,11.5667,108.9833,35.05,44,96,4.55,VN,1686628126
439,greenville,35.6127,-77.3663,21.19,98,62,3.07,US,1686628126
440,inari,68.906,27.0288,12.11,61,40,5.33,FI,1686628126
441,calabozo,8.9242,-67.4293,24.93,84,30,1.15,VE,1686627913
442,codrington,-38.2667,141.9667,13.05,71,97,6.69,AU,1686627979
443,belmonte,-15.8631,-38.8828,23.16,88,11,1.59,BR,1686628018
444,jinghong,21.991,100.7341,28.42,76,98,1.99,CN,1686628127
445,santa ana,33.7456,-117.8678,19.58,79,100,3.09,US,1686627838
446,sisimiut,66.9395,-53.6735,0.01,89,44,3.69,GL,1686628025
447,daru,-9.0763,143.2092,26.41,88,99,6.39,PG,1686627973
448,portland,45.5234,-122.6762,29.32,49,20,4.12,US,1686627402
449,melfi,40.9965,15.6514,13.05,81,5,1.39,IT,1686628127
450,inayauan,9.9005,122.434,29.92,69,99,3.31,PH,1686628127
451,mary,37.0,62.5,33.6,14,0,1.01,TM,1686628127
452,pervomayskoye,43.919,46.7102,25.88,59,47,3.22,RU,1686628128
453,tamandare,-8.7597,-35.1047,24.91,82,18,4.01,BR,1686628128
454,kabalo,-6.05,26.9167,21.74,71,85,1.04,CD,1686628128
455,kota kinabalu,5.9749,116.0724,33.99,66,20,2.06,MY,1686628128
456,santa rosalia,27.3167,-112.2833,22.72,44,100,3.23,MX,1686628128
457,odienne,9.51,-7.5692,21.5,96,38,1.05,CI,1686628128
458,pionerskiy,54.9508,20.2275,12.08,65,98,3.81,RU,1686628128
459,scarborough,54.2797,-0.4044,12.1,91,20,3.0,GB,1686627865
460,hassi messaoud,31.6804,6.0729,28.92,26,0,2.06,DZ,1686628129
461,xinglongshan,43.9561,125.4661,22.86,56,40,2.0,CN,1686628129
462,darwin,-12.4611,130.8418,31.61,33,0,5.66,AU,1686627902
463,hit,33.6416,42.8251,31.01,24,16,6.2,IQ,1686628129
464,kerikeri,-35.2268,173.9474,17.73,60,1,1.34,NZ,1686627994
465,marsh harbour,26.5412,-77.0636,27.26,79,49,4.68,BS,1686628129
466,atlantic,39.4668,-74.6663,19.93,90,20,5.66,US,1686627960
467,peace river,56.2501,-117.286,23.17,49,75,3.09,CA,1686628129
468,burayevo,55.8407,55.4083,11.96,53,0,4.39,RU,1686628130
469,helena valley west central,46.6629,-112.0604,17.07,87,59,1.79,US,1686628130
470,ta`u,-14.2336,-169.5144,27.71,73,65,7.33,AS,1686627995
471,banda aceh,5.5577,95.3222,31.23,59,56,5.72,ID,1686628130
472,remire-montjoly,4.9167,-52.2667,25.02,94,75,0.0,GF,1686627976
473,merizo village,13.2658,144.6691,30.85,89,50,8.3,GU,1686627906
474,altamira,-3.2033,-52.2064,23.62,97,95,1.52,BR,1686628019
475,inarajan village,13.2736,144.7484,31.08,89,46,8.37,GU,1686628130
476,coracora,-15.0333,-73.7833,8.66,32,40,2.49,PE,1686628130
477,scandiano,44.5965,10.6907,19.81,87,96,0.89,IT,1686628130
478,salahonda,2.1019,-78.7217,27.37,79,96,0.65,CO,1686628130
479,maceio,-9.6658,-35.7353,23.69,100,75,0.51,BR,1686627987
480,saudarkrokur,65.7461,-19.6394,8.36,83,7,2.88,IS,1686627915
481,shahrak,34.1074,64.3052,19.44,28,0,2.15,AF,1686628131
482,arawa,-6.2132,155.5367,29.84,76,29,2.24,PG,1686628131
483,kendari,-3.945,122.4989,24.39,95,100,1.63,ID,1686628003
484,thunder bay,48.4001,-89.3168,13.99,67,75,2.06,CA,1686627985
485,saldanha,-33.0117,17.9442,13.03,84,100,7.95,ZA,1686627994
486,euless,32.8371,-97.0819,27.45,62,40,4.12,US,1686627956
487,malaya vishera,58.8454,32.2222,14.5,56,12,1.9,RU,1686628131
488,cape girardeau,37.3834,-89.7168,15.77,71,45,0.7,US,1686628131
489,assab,13.0092,42.7394,32.32,63,100,8.62,ER,1686627904
490,riohacha,11.5444,-72.9072,27.76,76,99,5.85,CO,1686628131
491,kavieng,-2.5744,150.7967,29.13,75,46,4.11,PG,1686628004
492,mvomero,-6.25,38.6667,19.73,93,0,1.76,TZ,1686628132
493,filey,54.21,-0.2892,12.16,91,14,4.4,GB,1686628132
494,krems an der donau,48.4092,15.6142,11.29,91,0,1.42,AT,1686628132
495,sao felipe,-14.8167,-41.3833,19.0,78,1,0.63,BR,1686628132
496,borogontsy,62.6683,131.1683,7.14,87,100,0.81,RU,1686628004
497,cidreira,-30.1811,-50.2056,8.87,73,77,4.12,BR,1686628025
498,saint-pierre,-21.3393,55.4781,23.09,68,0,3.6,RE,1686628132
499,fort-shevchenko,44.5086,50.263,26.71,39,2,4.97,KZ,1686628132
500,dzuunharaa,48.8523,106.4579,28.83,30,100,5.61,MN,1686628132
501,sakata,38.9167,139.855,23.1,83,75,5.14,JP,1686628132
502,loango,-4.6719,11.8312,22.81,94,20,1.03,CG,1686628133
503,al hazm,16.1641,44.7769,30.82,27,100,2.64,YE,1686628133
504,malanje,-9.5402,16.341,15.62,96,9,1.46,AO,1686627899
505,mingoyo,-10.1,39.6333,18.88,93,0,1.73,TZ,1686628133
506,tabas,33.5959,56.9244,32.12,17,0,1.03,IR,1686628133
507,zinder,13.8072,8.9881,29.22,49,4,2.97,NE,1686628133
508,mejit,10.2753,170.8646,27.96,81,89,8.9,MH,1686627966
509,huayacocotla,20.55,-98.4833,16.07,91,1,1.27,MX,1686628133
510,luwuk,-0.9516,122.7875,27.21,85,100,0.84,ID,1686628014
511,castillos,-34.1667,-53.8333,8.66,66,91,1.86,UY,1686627978
512,tonj,7.2737,28.6822,22.67,71,89,1.95,SS,1686628003
513,ulan-ude,51.8261,107.6098,18.94,59,75,8.0,RU,1686628134
514,hobyo,5.3505,48.5268,26.22,79,46,10.09,SO,1686628134
515,el calafate,-50.3408,-72.2768,0.21,71,100,1.03,AR,1686628006
516,homosassa springs,28.8036,-82.5759,27.21,85,0,2.06,US,1686628134
517,lubango,-14.9172,13.4925,13.92,47,2,3.09,AO,1686627972
518,darab,28.7519,54.5444,33.08,15,0,0.87,IR,1686628134
519,nizhniy odes,63.6445,54.856,15.48,62,100,3.97,RU,1686627984
520,chilecito,-29.1619,-67.4974,6.77,54,100,0.91,AR,1686628134
521,chipata,-13.6333,32.65,14.72,68,30,1.92,ZM,1686628134
522,zastron,-30.3023,27.084,1.09,90,16,2.51,ZA,1686628135
523,achikulak,44.5517,44.8378,24.24,64,100,4.38,RU,1686628135
524,castelo do piaui,-5.3222,-41.5525,22.18,73,0,1.53,BR,1686628135
525,tantou,26.0314,119.5986,28.87,65,20,4.0,CN,1686628135
526,norfolk,42.1668,-71.2495,20.14,93,100,1.54,US,1686628135
527,yerofey pavlovich,53.9667,121.9667,12.07,74,100,1.63,RU,1686628135
528,kulhudhuffushi,6.6221,73.07,28.84,80,100,7.73,MV,1686628135
529,pagar alam,-4.0167,103.2667,28.67,53,13,2.07,ID,1686628135
530,saint-leu,-21.15,55.2833,22.75,86,5,2.39,RE,1686628135
531,copan,14.8333,-89.15,23.66,78,100,1.03,HN,1686628135
532,altai,46.3722,96.2583,14.01,57,86,4.12,MN,1686628136
533,gisborne,-38.6533,178.0042,11.72,78,37,6.89,NZ,1686628058
534,lagoa,39.05,-27.9833,18.57,91,1,6.32,PT,1686628136
535,nuevo ideal,24.8875,-105.0728,22.63,20,60,3.18,MX,1686628136
536,baramati,18.15,74.5833,30.37,50,29,7.58,IN,1686628136
537,omdurman,15.6445,32.4777,33.59,34,18,3.05,SD,1686628136
538,ola,59.5833,151.2833,18.97,90,86,5.09,RU,1686628136
539,russkaya polyana,49.417,31.9201,11.83,90,99,3.98,UA,1686628136
540,santa cruz cabralia,-16.2781,-39.0247,21.13,94,20,0.51,BR,1686628136
541,ugoofaaru,5.6667,73.0,28.84,79,100,7.85,MV,1686628136
542,nizhneangarsk,55.7833,109.55,13.83,41,100,2.71,RU,1686628137
543,rongelap,11.1635,166.8941,27.92,81,96,8.4,MH,1686627995
544,smithers,54.7804,-127.1743,22.18,33,40,4.63,CA,1686627980
545,mananjary,-21.2167,48.3333,19.67,88,37,2.73,MG,1686628137
546,leua,48.2156,18.6071,13.05,79,85,1.58,SK,1686628137
547,madison,34.7334,-86.5667,18.68,83,0,1.54,US,1686627638
548,taksimo,56.3444,114.8794,17.6,34,63,1.87,RU,1686628137
549,sao jose da coroa grande,-8.8978,-35.1478,25.06,81,22,4.9,BR,1686628137
550,orsta,62.2029,6.1272,13.2,82,100,0.0,NO,1686628137
551,midvagur,62.0511,-7.1939,6.46,87,92,0.0,FO,1686628022
552,santa maria degli angeli,43.058,12.5777,16.81,90,16,2.24,IT,1686628137
553,gracemere,-23.4333,150.45,26.95,44,40,0.51,AU,1686628023
554,ciudad lazaro cardenas,17.9583,-102.2,26.86,79,1,2.71,MX,1686627996
555,totness,5.8833,-56.3167,25.47,88,100,4.43,SR,1686628138
556,tete,-16.1564,33.5867,16.05,100,0,4.12,MZ,1686628138
557,pudozh,61.8099,36.5345,13.33,51,99,3.19,RU,1686628138
558,pariaman,-0.619,100.12,30.03,66,75,1.85,ID,1686628138
559,haskovo,41.9403,25.5694,17.9,100,96,0.88,BG,1686628138
560,sokoni,-6.4333,39.55,24.92,69,1,4.94,TZ,1686628138
561,lazaro cardenas,17.9583,-102.2,26.86,79,1,2.71,MX,1686627996
562,arkhipo-osipovka,44.37,38.52,19.68,90,100,2.78,RU,1686628138
563,athni,16.7333,75.0667,29.74,51,9,8.71,IN,1686628139
564,agua dulce,18.1333,-94.1333,27.91,82,5,2.39,MX,1686628139
565,ebon,4.582,168.6964,27.13,83,100,5.44,MH,1686628139
566,lautoka,-17.6167,177.4667,27.92,69,40,5.66,FJ,1686628038
567,mar del plata,-38.0023,-57.5575,6.72,90,40,1.54,AR,1686628007
568,rosario oeste,-14.8361,-56.4275,17.98,89,61,3.65,BR,1686628139
569,puerto san jose,13.9256,-90.8244,27.44,85,100,2.11,GT,1686628139
570,santo antonio do ica,-3.1022,-67.9397,23.02,98,51,0.44,BR,1686627916
571,kilindoni,-7.9139,39.6668,26.08,66,1,5.16,TZ,1686628007
572,kyzyl-suu,42.3414,78.0056,20.28,54,94,2.15,KG,1686628139
573,carrigaline,51.8117,-8.3986,15.86,94,75,4.12,IE,1686628139
574,umba,66.6871,34.3429,11.03,69,96,4.8,RU,1686628139
575,taoudenni,22.6783,-3.9836,32.17,13,42,4.31,ML,1686628016
576,greymouth,-42.4667,171.2,12.07,66,15,0.59,NZ,1686628061
577,nepalgunj,28.05,81.6167,38.62,28,0,2.09,NP,1686628140
578,berbera,10.4396,45.0143,33.35,44,96,8.29,SO,1686628140
579,kaka,37.3482,59.6143,33.8,13,0,2.75,TM,1686628140
580,perigueux,45.1833,0.7167,17.76,90,100,0.67,FR,1686628140
581,gharo,24.7424,67.5856,33.12,51,92,10.22,PK,1686628140
582,novoagansk,61.9449,76.6625,6.89,62,100,4.76,RU,1686628140
583,mount pearl,47.5166,-52.7813,8.8,96,100,9.77,CA,1686627996
584,prineville,44.2999,-120.8345,25.73,38,100,7.72,US,1686628140
585,bam,29.106,58.357,34.19,13,0,6.06,IR,1686628140
586,kuanda,56.3161,116.0806,15.49,42,74,1.81,RU,1686628141
587,mhamid,29.82,-5.72,25.28,26,0,1.68,MA,1686628141
588,abu,24.6,72.7,25.77,59,45,5.72,IN,1686627959
589,jijiga,9.35,42.8,17.81,86,89,4.15,ET,1686628141
